<?xml version="1.0"?>
<rss version="2.0" encoding="utf-8"><channel><name>Bil Bixen dealerdip deatail</name><item><name>Bilbixen A/S</name><address>Munkebjergvej 130</address><postal_code>5230</postal_code><lat>55.3809</lat><lng>10.4086</lng><day>mandag</day><open>08:30:00</open><close>17:00:00</close></item><item><name/><address>Industrivej 10</address><postal_code>7000</postal_code><lat>55.5905</lat><lng>9.75907</lng><day>mandag</day><open>08:30:00</open><close>17:00:00</close></item><item><name>Din Bil</name><address>Industrivej 34</address><postal_code>7171</postal_code><lat>55.852</lat><lng>9.59146</lng><day>mandag</day><open>08:30:00</open><close>17:00:00</close></item><item><name>Bent Bil</name><address>Odensevej 63</address><postal_code>5700</postal_code><lat>55.0704</lat><lng>10.5833</lng><day>mandag</day><open>08:30:00</open><close>17:00:00</close></item><item><name>Kjeld og Hilda Biler</name><address>Odensevej 8</address><postal_code>5300</postal_code><lat>55.4467</lat><lng>10.6589</lng><day>mandag</day><open>08:30:00</open><close>17:00:00</close></item><item><name>Monty Motors</name><address>Industrivej 40</address><postal_code>6070</postal_code><lat>55.6233</lat><lng>10.5249</lng><day>mandag</day><open>08:30:00</open><close>17:00:00</close></item><item><name></name><address>Skovvej 3</address><postal_code>4270</postal_code><lat>55.5131</lat><lng>11.2923</lng><day>mandag</day><open>08:30:00</open><close>17:00:00</close></item><item><name>Fjord Auto A/S</name><address>Fjordparken 11</address><postal_code>4000</postal_code><lat>55.6625</lat><lng>12.0911</lng><day>mandag</day><open>08:30:00</open><close>17:00:00</close></item><item><name>Jydske Auto</name><address>Silkeborgvej 68</address><postal_code>8000</postal_code><lat>56.1568</lat><lng>10.1852</lng><day>mandag</day><open>08:30:00</open><close>17:00:00</close></item><item><name></name><address>M&#x5925; Industrivej 25</address><postal_code>6705</postal_code><lat>55.4609</lat><lng>8.50209</lng><day>mandag</day><open>08:30:00</open><close>17:00:00</close></item></channel></rss>
